{"type":"FeatureCollection","features":[{"type":"Feature","geometry":{"type":"Point","coordinates":[-1.541810063000014,47.245005505999984]},"properties":{"id":"1824","name":"Square de Belle Ile","city":"NANTES","oms":true,"actif":true}},{"type":"Feature","geometry":{"type":"Point","coordinates":[-1.553230917999997,47.23098555299998]},"properties":{"id":"1825","name":"Square F�lix Thomas","city":"NANTES","oms":true,"actif":true}},{"type":"Feature","geometry":{"type":"Point","coordinates":[-1.5315596159999814,47.21458148200003]},"properties":{"id":"1826","name":"Square de la Tch�coslovaquie","city":"NANTES","oms":true,"actif":true}},{"type":"Feature","geometry":{"type":"Point","coordinates":[-1.512167197999986,47.260935545999985]},"properties":{"id":"1827","name":"Square du Champ de Tir","city":"NANTES","oms":true,"actif":true}},{"type":"Feature","geometry":{"type":"Point","coordinates":[-1.5202138880000007,47.265744568]},"properties":{"id":"1828","name":"Bois des Quatre Jeudis","city":"NANTES","oms":true,"actif":true}},{"type":"Feature","geometry":{"type":"Point","coordinates":[-1.5543289020000088,47.226122944999986]},"properties":{"id":"1829","name":"Ile de Versailles","city":"NANTES","oms":true,"actif":true}},{"type":"Feature","geometry":{"type":"Point","coordinates":[-1.5776497620000214,47.20142776199998]},"properties":{"id":"1830","name":"Belv�d�re Sainte-Anne","city":"NANTES","oms":true,"actif":true}},{"type":"Feature","geometry":{"type":"Point","coordinates":[-1.5825276090000102,47.22392700500001]},"properties":{"id":"1831","name":"Parc de Proc�","city":"NANTES","oms":true,"actif":true}},{"type":"Feature","geometry":{"type":"Point","coordinates":[-1.5359199839999746,47.20369808200002]},"properties":{"id":"1832","name":"Square Marcel Launay","city":"NANTES","oms":true,"actif":true}},{"type":"Feature","geometry":{"type":"Point","coordinates":[-1.5664709079999852,47.212387569999976]},"properties":{"id":"1833","name":"Jardin du Mus�e Dobr�e","city":"NANTES","oms":true,"actif":true}},{"type":"Feature","geometry":{"type":"Point","coordinates":[-1.5342458220000026,47.21673436499998]},"properties":{"id":"1834","name":"Square Nina Simone","city":"NANTES","oms":true,"actif":true}},{"type":"Feature","geometry":{"type":"Point","coordinates":[-1.6064369740000188,47.20314066899999]},"properties":{"id":"1835","name":"Parc de la M�ta","city":"NANTES","oms":true,"actif":true}},{"type":"Feature","geometry":{"type":"Point","coordinates":[-1.585057154000026,47.20040787200003]},"properties":{"id":"1836","name":"Le Parc des Oblates","city":"NANTES","oms":true,"actif":true}},{"type":"Feature","geometry":{"type":"Point","coordinates":[-1.563925557999994,47.218059262]},"properties":{"id":"1837","name":"Square Faustin H�lie","city":"NANTES","oms":true,"actif":true}},{"type":"Feature","geometry":{"type":"Point","coordinates":[-1.5480403029999934,47.203761224000004]},"properties":{"id":"1838","name":"Place Wattignies","city":"NANTES","oms":true,"actif":true}},{"type":"Feature","geometry":{"type":"Point","coordinates":[-1.5483635229999777,47.212117288]},"properties":{"id":"1839","name":"Square du Lait de Mai","city":"NANTES","oms":true,"actif":true}},{"type":"Feature","geometry":{"type":"Point","coordinates":[-1.5431651260000194,47.241093080999974]},"properties":{"id":"1840","name":"Parc du Port Boyer","city":"NANTES","oms":true,"actif":true}},{"type":"Feature","geometry":{"type":"Point","coordinates":[-1.5447281489999796,47.21494116100001]},"properties":{"id":"1841","name":"Square Jean Heurtin","city":"NANTES","oms":true,"actif":true}},{"type":"Feature","geometry":{"type":"Point","coordinates":[-1.518790867000007,47.26318061400002]},"properties":{"id":"1842","name":"Square Maire-Madeleine Fourcade","city":"NANTES","oms":true,"actif":true}},{"type":"Feature","geometry":{"type":"Point","coordinates":[-1.593135984000014,47.204126652000014]},"properties":{"id":"1843","name":"Square Jean Le Gigant","city":"NANTES","oms":true,"actif":true}},{"type":"Feature","geometry":{"type":"Point","coordinates":[-1.6006803220000165,47.209495984]},"properties":{"id":"1844","name":"Square Corr�ze","city":"NANTES","oms":true,"actif":true}},{"type":"Feature","geometry":{"type":"Point","coordinates":[-1.5215066520000278,47.266913620000025]},"properties":{"id":"1845","name":"Square des Farfadets","city":"NANTES","oms":true,"actif":true}},{"type":"Feature","geometry":{"type":"Point","coordinates":[-1.5454755810000051,47.218214628]},"properties":{"id":"1846","name":"Square Saint Fran�ois","city":"NANTES","oms":true,"actif":true}},{"type":"Feature","geometry":{"type":"Point","coordinates":[-1.51682800399999,47.268808315]},"properties":{"id":"1847","name":"Square du Zenith","city":"NANTES","oms":true,"actif":true}},{"type":"Feature","geometry":{"type":"Point","coordinates":[-1.6105278090000184,47.204560257000026]},"properties":{"id":"1848","name":"Bois de la Musse","city":"NANTES","oms":true,"actif":true}},{"type":"Feature","geometry":{"type":"Point","coordinates":[-1.5448420160000182,47.20562981500001]},"properties":{"id":"1849","name":"Jardin des Fonderies","city":"NANTES","oms":true,"actif":true}},{"type":"Feature","geometry":{"type":"Point","coordinates":[-1.6101853289999895,47.20794786099998]},"properties":{"id":"1850","name":"Square des Rossignols","city":"NANTES","oms":true,"actif":true}},{"type":"Feature","geometry":{"type":"Point","coordinates":[-1.5361470760000202,47.23506576]},"properties":{"id":"1851","name":"Parc du Plessis Tison","city":"NANTES","oms":true,"actif":true}},{"type":"Feature","geometry":{"type":"Point","coordinates":[-1.5548377360000245,47.218462912999996]},"properties":{"id":"1852","name":"Jardin de l'h�tel de Ville","city":"NANTES","oms":true,"actif":true}},{"type":"Feature","geometry":{"type":"Point","coordinates":[-1.5651121710000098,47.213007593999976]},"properties":{"id":"1853","name":"Square Louis Bureau","city":"NANTES","oms":true,"actif":true}},{"type":"Feature","geometry":{"type":"Point","coordinates":[-1.5707567439999934,47.20923550399999]},"properties":{"id":"1854","name":"Square des Combattants d'Afrique du Nord","city":"NANTES","oms":true,"actif":true}},{"type":"Feature","geometry":{"type":"Point","coordinates":[-1.5684381149999922,47.21250045800002]},"properties":{"id":"1855","name":"Jardin Say","city":"NANTES","oms":true,"actif":true}},{"type":"Feature","geometry":{"type":"Point","coordinates":[-1.5229314459999728,47.242997471000024]},"properties":{"id":"1856","name":"Square Augustin Fresnel","city":"NANTES","oms":true,"actif":true}},{"type":"Feature","geometry":{"type":"Point","coordinates":[-1.558412555000018,47.24550301199997]},"properties":{"id":"1857","name":"Parc du Petit Port","city":"NANTES","oms":true,"actif":true}},{"type":"Feature","geometry":{"type":"Point","coordinates":[-1.576995452999995,47.26460711599998]},"properties":{"id":"1858","name":"Square Ren� Cassin","city":"NANTES","oms":true,"actif":true}},{"type":"Feature","geometry":{"type":"Point","coordinates":[-1.520734076999986,47.212430799]},"properties":{"id":"1859","name":"Parc de Beaulieu","city":"NANTES","oms":true,"actif":true}},{"type":"Feature","geometry":{"type":"Point","coordinates":[-1.5768918960000065,47.201897707]},"properties":{"id":"1860","name":"Square Commandant Aubin","city":"NANTES","oms":true,"actif":true}},{"type":"Feature","geometry":{"type":"Point","coordinates":[-1.5142241770000169,47.269068627000024]},"properties":{"id":"1861","name":"Square du Couchant","city":"NANTES","oms":true,"actif":true}},{"type":"Feature","geometry":{"type":"Point","coordinates":[-1.5637600559999782,47.21919126]},"properties":{"id":"1862","name":"Square Etienne Destranges","city":"NANTES","oms":true,"actif":true}},{"type":"Feature","geometry":{"type":"Point","coordinates":[-1.527543879999996,47.22274689699998]},"properties":{"id":"1863","name":"Square Jean-Baptiste Barre","city":"NANTES","oms":true,"actif":true}},{"type":"Feature","geometry":{"type":"Point","coordinates":[-1.6083776240000134,47.202643937999994]},"properties":{"id":"1864","name":"Square Charles Housset","city":"NANTES","oms":true,"actif":true}},{"type":"Feature","geometry":{"type":"Point","coordinates":[-1.5218530469999791,47.22660635]},"properties":{"id":"1865","name":"Parc de Broussais","city":"NANTES","oms":true,"actif":true}},{"type":"Feature","geometry":{"type":"Point","coordinates":[-1.5870944540000096,47.212158423999995]},"properties":{"id":"1866","name":"Square du Prinquiau","city":"NANTES","oms":true,"actif":true}},{"type":"Feature","geometry":{"type":"Point","coordinates":[-1.5782455519999985,47.26092645199998]},"properties":{"id":"1867","name":"Parc du Bout des Pav�s","city":"NANTES","oms":true,"actif":true}},{"type":"Feature","geometry":{"type":"Point","coordinates":[-1.5265750919999732,47.227481012]},"properties":{"id":"1868","name":"Parc de la No� Mitrie","city":"NANTES","oms":true,"actif":true}},{"type":"Feature","geometry":{"type":"Point","coordinates":[-1.5208124729999781,47.25447677400001]},"properties":{"id":"1869","name":"Square de la Halv�que","city":"NANTES","oms":true,"actif":true}},{"type":"Feature","geometry":{"type":"Point","coordinates":[-1.5200315999999816,47.270021816999986]},"properties":{"id":"1870","name":"Square des Grands P�tis","city":"NANTES","oms":true,"actif":true}},{"type":"Feature","geometry":{"type":"Point","coordinates":[-1.5688681039999892,47.25630531600001]},"properties":{"id":"1871","name":"Square Ren�-Guy Cadou","city":"NANTES","oms":true,"actif":true}},{"type":"Feature","geometry":{"type":"Point","coordinates":[-1.5199822629999744,47.18297594400002]},"properties":{"id":"1872","name":"Square du Vieux Parc de S�vres","city":"NANTES","oms":true,"actif":true}},{"type":"Feature","geometry":{"type":"Point","coordinates":[-1.5096427999999946,47.241518093000025]},"properties":{"id":"1873","name":"Jardin du R�servoir","city":"NANTES","oms":true,"actif":true}},{"type":"Feature","geometry":{"type":"Point","coordinates":[-1.5247319029999744,47.24499151200001]},"properties":{"id":"1874","name":"Square de la Piloti�re","city":"NANTES","oms":true,"actif":true}},{"type":"Feature","geometry":{"type":"Point","coordinates":[-1.522567572000014,47.22524657299999]},"properties":{"id":"1875","name":"Square Jules Br�choir","city":"NANTES","oms":true,"actif":true}},{"type":"Feature","geometry":{"type":"Point","coordinates":[-1.5192760379999868,47.240567295000005]},"properties":{"id":"1876","name":"Square de la Pergola","city":"NANTES","oms":true,"actif":true}},{"type":"Feature","geometry":{"type":"Point","coordinates":[-1.5239710299999842,47.21622735300002]},"properties":{"id":"1877","name":"Square de Hongrie","city":"NANTES","oms":true,"actif":true}},{"type":"Feature","geometry":{"type":"Point","coordinates":[-1.5629966810000155,47.22529364100001]},"properties":{"id":"1878","name":"Parc des Capucins","city":"NANTES","oms":true,"actif":true}},{"type":"Feature","geometry":{"type":"Point","coordinates":[-1.533640326000011,47.20716353400002]},"properties":{"id":"1879","name":"Jardin des cinq sens","city":"NANTES","oms":true,"actif":true}},{"type":"Feature","geometry":{"type":"Point","coordinates":[-1.5632198850000236,47.260247943000024]},"properties":{"id":"1881","name":"Square de la Petite Sensive","city":"NANTES","oms":true,"actif":true}},{"type":"Feature","geometry":{"type":"Point","coordinates":[-1.510601434000023,47.267508220000025]},"properties":{"id":"1882","name":"Square Germaine Tillion","city":"NANTES","oms":true,"actif":true}},{"type":"Feature","geometry":{"type":"Point","coordinates":[-1.5161469299999908,47.26684549599997]},"properties":{"id":"1883","name":"Square de l'Embellie","city":"NANTES","oms":true,"actif":true}},{"type":"Feature","geometry":{"type":"Point","coordinates":[-1.5854869849999886,47.23043376700002]},"properties":{"id":"1884","name":"Square Louis Feuillade","city":"NANTES","oms":true,"actif":true}},{"type":"Feature","geometry":{"type":"Point","coordinates":[-1.566077292999978,47.228755748000026]},"properties":{"id":"1885","name":"Square Saint Pasquier","city":"NANTES","oms":true,"actif":true}},{"type":"Feature","geometry":{"type":"Point","coordinates":[-1.5294719629999918,47.20930418400002]},"properties":{"id":"1886","name":"Square G�n�ral de la Bollardi�re","city":"NANTES","oms":true,"actif":true}},{"type":"Feature","geometry":{"type":"Point","coordinates":[-1.5450075829999719,47.252111316000025]},"properties":{"id":"1887","name":"Square des Ing�nieurs","city":"NANTES","oms":true,"actif":true}},{"type":"Feature","geometry":{"type":"Point","coordinates":[-1.550132734999977,47.215616856]},"properties":{"id":"1888","name":"Jardin des douves du Ch�teau","city":"NANTES","oms":true,"actif":true}},{"type":"Feature","geometry":{"type":"Point","coordinates":[-1.5686171969999805,47.230848095]},"properties":{"id":"1889","name":"Square F�lix Faure","city":"NANTES","oms":true,"actif":true}},{"type":"Feature","geometry":{"type":"Point","coordinates":[-1.5773175229999765,47.20208672000001]},"properties":{"id":"1890","name":"Square Marcel Moisan","city":"NANTES","oms":true,"actif":true}},{"type":"Feature","geometry":{"type":"Point","coordinates":[-1.5627866660000223,47.21110856199999]},"properties":{"id":"1891","name":"Square Gabriel Ch�reau","city":"NANTES","oms":true,"actif":true}},{"type":"Feature","geometry":{"type":"Point","coordinates":[-1.5134921389999931,47.24154071700002]},"properties":{"id":"1892","name":"Parc Botti�re-Chenaie","city":"NANTES","oms":true,"actif":true}},{"type":"Feature","geometry":{"type":"Point","coordinates":[-1.5786627819999808,47.24433031500001]},"properties":{"id":"1893","name":"Parc de la Gaudini�re","city":"NANTES","oms":true,"actif":true}},{"type":"Feature","geometry":{"type":"Point","coordinates":[-1.5976591560000202,47.20115274800003]},"properties":{"id":"1894","name":"Parc de la Boucardi�re","city":"NANTES","oms":true,"actif":true}},{"type":"Feature","geometry":{"type":"Point","coordinates":[-1.5579172569999855,47.211902416999976]},"properties":{"id":"1895","name":"Square Jean-Baptiste Daviais","city":"NANTES","oms":true,"actif":true}},{"type":"Feature","geometry":{"type":"Point","coordinates":[-1.5631886610000265,47.211941696999986]},"properties":{"id":"1896","name":"Cours Cambronne","city":"NANTES","oms":true,"actif":true}},{"type":"Feature","geometry":{"type":"Point","coordinates":[-1.523076419000006,47.26608304400003]},"properties":{"id":"1897","name":"Square Barbara","city":"NANTES","oms":true,"actif":true}},{"type":"Feature","geometry":{"type":"Point","coordinates":[-1.5589719939999895,47.21241709200001]},"properties":{"id":"1898","name":"Square Villebois Mareuil","city":"NANTES","oms":true,"actif":true}},{"type":"Feature","geometry":{"type":"Point","coordinates":[-1.5759191070000043,47.20346237199999]},"properties":{"id":"1899","name":"Square Commandant Lacroix","city":"NANTES","oms":true,"actif":true}},{"type":"Feature","geometry":{"type":"Point","coordinates":[-1.6053341940000223,47.20822451999999]},"properties":{"id":"1900","name":"Parc du Jamet","city":"NANTES","oms":true,"actif":true}},{"type":"Feature","geometry":{"type":"Point","coordinates":[-1.510025784999982,47.228394783]},"properties":{"id":"1901","name":"Parc du Grand Blottereau","city":"NANTES","oms":true,"actif":true}},{"type":"Feature","geometry":{"type":"Point","coordinates":[-1.5175650680000103,47.21851405000001]},"properties":{"id":"1902","name":"Parc de la Roche","city":"NANTES","oms":true,"actif":true}},{"type":"Feature","geometry":{"type":"Point","coordinates":[-1.552084829000023,47.22225945500003]},"properties":{"id":"1903","name":"Square Maquis de Saffr�","city":"NANTES","oms":true,"actif":true}},{"type":"Feature","geometry":{"type":"Point","coordinates":[-1.5510691700000052,47.214355668999985]},"properties":{"id":"1904","name":"Square Elisa Mercoeur","city":"NANTES","oms":true,"actif":true}},{"type":"Feature","geometry":{"type":"Point","coordinates":[-1.5499393939999777,47.21779103799997]},"properties":{"id":"1905","name":"Jardin de la Psalette","city":"NANTES","oms":true,"actif":true}},{"type":"Feature","geometry":{"type":"Point","coordinates":[-1.5744817539999758,47.21440703500002]},"properties":{"id":"1906","name":"Square Canclaux","city":"NANTES","oms":true,"actif":true}},{"type":"Feature","geometry":{"type":"Point","coordinates":[-1.5731922620000205,47.260616024]},"properties":{"id":"1907","name":"Parc du Ch�ne des Anglais","city":"NANTES","oms":true,"actif":true}},{"type":"Feature","geometry":{"type":"Point","coordinates":[-1.5243799190000118,47.286413176999986]},"properties":{"id":"1908","name":"Parc de la Chantrerie","city":"NANTES","oms":true,"actif":true}},{"type":"Feature","geometry":{"type":"Point","coordinates":[-1.5635025010000163,47.216107109999996]},"properties":{"id":"1909","name":"Square Pascal Leb�e","city":"NANTES","oms":true,"actif":true}},{"type":"Feature","geometry":{"type":"Point","coordinates":[-1.5209350700000073,47.237754713000015]},"properties":{"id":"1910","name":"Square Grande Noue","city":"NANTES","oms":true,"actif":true}},{"type":"Feature","geometry":{"type":"Point","coordinates":[-1.5677651240000046,47.21435363699999]},"properties":{"id":"1911","name":"Square de l'Edit de Nantes","city":"NANTES","oms":true,"actif":true}},{"type":"Feature","geometry":{"type":"Point","coordinates":[-1.5544883819999882,47.217388805999974]},"properties":{"id":"1912","name":"Square Amiral Halgan","city":"NANTES","oms":true,"actif":true}},{"type":"Feature","geometry":{"type":"Point","coordinates":[-1.5855563409999718,47.210112048999974]},"properties":{"id":"1913","name":"Square de la Hunaudais","city":"NANTES","oms":true,"actif":true}},{"type":"Feature","geometry":{"type":"Point","coordinates":[-1.5808838419999915,47.20018378100002]},"properties":{"id":"1914","name":"Le Jardin Extraordinaire","city":"NANTES","oms":true,"actif":true}},{"type":"Feature","geometry":{"type":"Point","coordinates":[-1.5775880200000074,47.20145181800001]},"properties":{"id":"1915","name":"Square Jules Verne","city":"NANTES","oms":true,"actif":true}},{"type":"Feature","geometry":{"type":"Point","coordinates":[-1.5811743979999733,47.20115187900001]},"properties":{"id":"1916","name":"Square Maurice Schwob","city":"NANTES","oms":true,"actif":true}},{"type":"Feature","geometry":{"type":"Point","coordinates":[-1.5715036440000176,47.234966359]},"properties":{"id":"1917","name":"Square Gaston Michel","city":"NANTES","oms":true,"actif":true}},{"type":"Feature","geometry":{"type":"Point","coordinates":[-1.5163231230000065,47.24627462400002]},"properties":{"id":"1918","name":"Jardin des Mara�ches","city":"NANTES","oms":true,"actif":true}},{"type":"Feature","geometry":{"type":"Point","coordinates":[-1.5486900249999849,47.20515258099999]},"properties":{"id":"1919","name":"Square Eglise de La Madeleine","city":"NANTES","oms":true,"actif":true}},{"type":"Feature","geometry":{"type":"Point","coordinates":[-1.5923497549999865,47.20783292499999]},"properties":{"id":"1920","name":"Square de la Marseillaise","city":"NANTES","oms":true,"actif":true}},{"type":"Feature","geometry":{"type":"Point","coordinates":[-1.5961893620000183,47.21729333600001]},"properties":{"id":"1921","name":"Square Robert Desnos","city":"NANTES","oms":true,"actif":true}},{"type":"Feature","geometry":{"type":"Point","coordinates":[-1.6161157369999728,47.194884883999976]},"properties":{"id":"1922","name":"Square Toussaint Louverture","city":"NANTES","oms":true,"actif":true}},{"type":"Feature","geometry":{"type":"Point","coordinates":[-1.527572163000002,47.20847208800001]},"properties":{"id":"1923","name":"Place de la Guirou�e","city":"NANTES","oms":true,"actif":true}},{"type":"Feature","geometry":{"type":"Point","coordinates":[-1.5818249980000019,47.23169131100002]},"properties":{"id":"1924","name":"Square M�li�s","city":"NANTES","oms":true,"actif":true}},{"type":"Feature","geometry":{"type":"Point","coordinates":[-1.5709898229999908,47.262856242]},"properties":{"id":"1925","name":"Parc de l'Amande","city":"NANTES","oms":true,"actif":true}},{"type":"Feature","geometry":{"type":"Point","coordinates":[-1.5933392759999947,47.20043817499999]},"properties":{"id":"1926","name":"Square des Courtils","city":"NANTES","oms":true,"actif":true}},{"type":"Feature","geometry":{"type":"Point","coordinates":[-1.51896582400002,47.267014768000024]},"properties":{"id":"1927","name":"Square du Nadir","city":"NANTES","oms":true,"actif":true}},{"type":"Feature","geometry":{"type":"Point","coordinates":[-1.5763116850000074,47.202491312999996]},"properties":{"id":"1928","name":"Esplanade Jean Bruneau","city":"NANTES","oms":true,"actif":true}},{"type":"Feature","geometry":{"type":"Point","coordinates":[-1.608503703999986,47.20661805100002]},"properties":{"id":"1929","name":"Square de la Rue de l'Adour","city":"NANTES","oms":true,"actif":true}},{"type":"Feature","geometry":{"type":"Point","coordinates":[-1.5950487119999934,47.22496123799999]},"properties":{"id":"1930","name":"Parc des Dervalli�res","city":"NANTES","oms":true,"actif":true}},{"type":"Feature","geometry":{"type":"Point","coordinates":[-1.5252713290000202,47.208045371000026]},"properties":{"id":"1931","name":"Square Basse Mar","city":"NANTES","oms":true,"actif":true}},{"type":"Feature","geometry":{"type":"Point","coordinates":[-1.5743768280000268,47.23321879399998]},"properties":{"id":"1932","name":"Square Washington","city":"NANTES","oms":true,"actif":true}},{"type":"Feature","geometry":{"type":"Point","coordinates":[-1.5499660099999915,47.20509154400003]},"properties":{"id":"1933","name":"Square Gustave Roch","city":"NANTES","oms":true,"actif":true}},{"type":"Feature","geometry":{"type":"Point","coordinates":[-1.5538660189999973,47.21517963399998]},"properties":{"id":"1934","name":"Jardin Sainte Croix","city":"NANTES","oms":true,"actif":true}},{"type":"Feature","geometry":{"type":"Point","coordinates":[-1.5596282210000254,47.20752445400001]},"properties":{"id":"1935","name":"Jardin de l'�le Mabon","city":"NANTES","oms":true,"actif":true}},{"type":"Feature","geometry":{"type":"Point","coordinates":[-1.5380047030000128,47.191889616000026]},"properties":{"id":"1936","name":"Jardin de la Persagoti�re","city":"NANTES","oms":true,"actif":true}},{"type":"Feature","geometry":{"type":"Point","coordinates":[-1.5228395930000147,47.216404565999994]},"properties":{"id":"1937","name":"Square de Chypre","city":"NANTES","oms":true,"actif":true}},{"type":"Feature","geometry":{"type":"Point","coordinates":[-1.5281277110000246,47.19488783999998]},"properties":{"id":"1938","name":"Square du Clos Toreau","city":"NANTES","oms":true,"actif":true}},{"type":"Feature","geometry":{"type":"Point","coordinates":[-1.5249530849999928,47.25784177899999]},"properties":{"id":"1939","name":"Aire du Stade de la Beaujoire","city":"NANTES","oms":true,"actif":true}},{"type":"Feature","geometry":{"type":"Point","coordinates":[-1.5681790309999997,47.25421125999998]},"properties":{"id":"1940","name":"Parc de la Boissi�re","city":"NANTES","oms":true,"actif":true}},{"type":"Feature","geometry":{"type":"Point","coordinates":[-1.5188367179999887,47.26855050299997]},"properties":{"id":"1941","name":"Square Louis Pergaud","city":"NANTES","oms":true,"actif":true}},{"type":"Feature","geometry":{"type":"Point","coordinates":[-1.5826193600000238,47.23806853399998]},"properties":{"id":"1942","name":"Jardin des Nectars","city":"NANTES","oms":true,"actif":true}},{"type":"Feature","geometry":{"type":"Point","coordinates":[-1.536421603000008,47.21503142099999]},"properties":{"id":"1943","name":"Square Pablo Picasso","city":"NANTES","oms":true,"actif":true}},{"type":"Feature","geometry":{"type":"Point","coordinates":[-1.5708382139999912,47.25438482599998]},"properties":{"id":"1944","name":"Square Proust Bergson","city":"NANTES","oms":true,"actif":true}},{"type":"Feature","geometry":{"type":"Point","coordinates":[-1.5330595020000146,47.26217104900002]},"properties":{"id":"1945","name":"Parc Floral de la Beaujoire","city":"NANTES","oms":true,"actif":true}},{"type":"Feature","geometry":{"type":"Point","coordinates":[-1.5465816500000074,47.202467919000014]},"properties":{"id":"1946","name":"Square Vertais","city":"NANTES","oms":true,"actif":true}},{"type":"Feature","geometry":{"type":"Point","coordinates":[-1.5803692129999831,47.20763689500001]},"properties":{"id":"1947","name":"Square Pilleux","city":"NANTES","oms":true,"actif":true}},{"type":"Feature","geometry":{"type":"Point","coordinates":[-1.5662161729999866,47.20678428399998]},"properties":{"id":"1948","name":"Parc des Chantiers","city":"NANTES","oms":true,"actif":true}},{"type":"Feature","geometry":{"type":"Point","coordinates":[-1.5815620710000076,47.222289579000005]},"properties":{"id":"1949","name":"Jardin d'Enfants de Proc�","city":"NANTES","oms":true,"actif":true}},{"type":"Feature","geometry":{"type":"Point","coordinates":[-1.5515464079999788,47.20215614]},"properties":{"id":"1950","name":"Square B�noni Goulin","city":"NANTES","oms":true,"actif":true}},{"type":"Feature","geometry":{"type":"Point","coordinates":[-1.5430812590000187,47.21967020599999]},"properties":{"id":"1880","name":"Jardin des Plantes","city":"NANTES","oms":true,"actif":true}}]}