{"type":"FeatureCollection","features":[{"type":"Feature","geometry":{"type":"Point","coordinates":[1.44073,43.60775]},"properties":{"id":"1951","name":"Jardin Emile Cartailhac","city":"TOULOUSE","oms":true,"actif":true}},{"type":"Feature","geometry":{"type":"Point","coordinates":[1.458703,43.5916417]},"properties":{"id":"1952","name":"Jardin du musée Georges-Labit","city":"TOULOUSE","oms":true,"actif":true}},{"type":"Feature","geometry":{"type":"Point","coordinates":[1.3696227,43.598804]},"properties":{"id":"1953","name":"Parc Saint-Martin du Touch","city":"TOULOUSE","oms":true,"actif":true}},{"type":"Feature","geometry":{"type":"Point","coordinates":[1.4909858,43.5864303]},"properties":{"id":"1954","name":"La Grande Plaine","city":"TOULOUSE","oms":true,"actif":true}},{"type":"Feature","geometry":{"type":"Point","coordinates":[1.447376948,43.604856327]},"properties":{"id":"1960","name":"Square Wilson","city":"TOULOUSE","oms":true,"actif":true}},{"type":"Feature","geometry":{"type":"Point","coordinates":[1.445122156,43.604526123]},"properties":{"id":"1961","name":"Square Charles-de-Gaulle","city":"TOULOUSE","oms":true,"actif":true}},{"type":"Feature","geometry":{"type":"Point","coordinates":[1.437840411,43.609392654]},"properties":{"id":"1962","name":"Jardin d'Embarthe","city":"TOULOUSE","oms":true,"actif":true}},{"type":"Feature","geometry":{"type":"Point","coordinates":[1.4464499,43.600737739]},"properties":{"id":"1964","name":"Square Privat","city":"TOULOUSE","oms":true,"actif":true}},{"type":"Feature","geometry":{"type":"Point","coordinates":[1.432000477,43.613054469]},"properties":{"id":"1965","name":"Jardin Compans-Caffarelli ","city":"TOULOUSE","oms":true,"actif":true}},{"type":"Feature","geometry":{"type":"Point","coordinates":[1.432167106,43.611701842]},"properties":{"id":"1966","name":"Jardin japonais Pierre-Baudis","city":"TOULOUSE","oms":true,"actif":true}},{"type":"Feature","geometry":{"type":"Point","coordinates":[1.417259959,43.602469183]},"properties":{"id":"1967","name":"Parc de Bourrassol","city":"TOULOUSE","oms":true,"actif":true}},{"type":"Feature","geometry":{"type":"Point","coordinates":[1.4185526,43.6113186]},"properties":{"id":"1970","name":"Berges du canal du Midi ","city":"TOULOUSE","oms":true,"actif":true}},{"type":"Feature","geometry":{"type":"Point","coordinates":[1.451043022,43.608363314]},"properties":{"id":"1972","name":"Jardin du Castelet","city":"TOULOUSE","oms":true,"actif":true}},{"type":"Feature","geometry":{"type":"Point","coordinates":[1.427737493,43.607862616]},"properties":{"id":"1973","name":"Square Héraclès","city":"TOULOUSE","oms":true,"actif":true}},{"type":"Feature","geometry":{"type":"Point","coordinates":[1.4495603,43.603286]},"properties":{"id":"1974","name":"Place Occitane","city":"TOULOUSE","oms":true,"actif":true}},{"type":"Feature","geometry":{"type":"Point","coordinates":[1.4569262,43.611442659]},"properties":{"id":"1975","name":"Jardin Marcel-Thourel","city":"TOULOUSE","oms":true,"actif":true}},{"type":"Feature","geometry":{"type":"Point","coordinates":[1.4205784,43.6063391]},"properties":{"id":"1976","name":"Coulée verte des Amidonniers","city":"TOULOUSE","oms":true,"actif":true}},{"type":"Feature","geometry":{"type":"Point","coordinates":[1.422237877,43.584502304]},"properties":{"id":"1977","name":"Parc Fontaine-Lestang","city":"TOULOUSE","oms":true,"actif":true}},{"type":"Feature","geometry":{"type":"Point","coordinates":[1.416135923,43.587945196]},"properties":{"id":"1978","name":"Jardin Vestrepain","city":"TOULOUSE","oms":true,"actif":true}},{"type":"Feature","geometry":{"type":"Point","coordinates":[1.415625506,43.590528539]},"properties":{"id":"1979","name":"Jardin du Pech","city":"TOULOUSE","oms":true,"actif":true}},{"type":"Feature","geometry":{"type":"Point","coordinates":[1.410854088,43.590460751]},"properties":{"id":"1980","name":"Jardin de l'Hippodrome","city":"TOULOUSE","oms":true,"actif":true}},{"type":"Feature","geometry":{"type":"Point","coordinates":[1.408409912,43.594069547]},"properties":{"id":"1981","name":"Jardin Yves-Bergougnan","city":"TOULOUSE","oms":true,"actif":true}},{"type":"Feature","geometry":{"type":"Point","coordinates":[1.417339311,43.596749867]},"properties":{"id":"1982","name":"Espace vert Polygone-Roquemaurel","city":"TOULOUSE","oms":true,"actif":true}},{"type":"Feature","geometry":{"type":"Point","coordinates":[1.401587294,43.600134191]},"properties":{"id":"1983","name":"Jardin du Barry","city":"TOULOUSE","oms":true,"actif":true}},{"type":"Feature","geometry":{"type":"Point","coordinates":[1.438203694,43.653812151]},"properties":{"id":"1984","name":"Parc de la Violette ","city":"TOULOUSE","oms":true,"actif":true}},{"type":"Feature","geometry":{"type":"Point","coordinates":[1.435131209,43.634368695]},"properties":{"id":"1985","name":"Jardin de la Vache","city":"TOULOUSE","oms":true,"actif":true}},{"type":"Feature","geometry":{"type":"Point","coordinates":[1.434230366,43.621557215]},"properties":{"id":"1986","name":"Jardin Claude Nougaro","city":"TOULOUSE","oms":true,"actif":true}},{"type":"Feature","geometry":{"type":"Point","coordinates":[1.41689835,43.61145194]},"properties":{"id":"1987","name":"Jardin du Port de l'Embouchure","city":"TOULOUSE","oms":true,"actif":true}},{"type":"Feature","geometry":{"type":"Point","coordinates":[1.445954516,43.616731495]},"properties":{"id":"1988","name":"Jardin Abadie","city":"TOULOUSE","oms":true,"actif":true}},{"type":"Feature","geometry":{"type":"Polygon","coordinates":[[[1.418809,43.601192],[1.419786,43.600852],[1.419802,43.600982],[1.419445,43.601942],[1.418642,43.601491],[1.418712,43.60139],[1.418903,43.601351],[1.418809,43.601192]]]},"properties":{"id":"1968","name":"Jardin des Fontaines","city":"TOULOUSE","oms":true,"actif":true}},{"type":"Feature","geometry":{"type":"Point","coordinates":[1.406768269,43.617369608]},"properties":{"id":"1989","name":"Jardin Job","city":"TOULOUSE","oms":true,"actif":true}},{"type":"Feature","geometry":{"type":"Point","coordinates":[1.407355748,43.614815144]},"properties":{"id":"1990","name":"Jardin du Soleil d'Or","city":"TOULOUSE","oms":true,"actif":true}},{"type":"Feature","geometry":{"type":"Point","coordinates":[1.416877078,43.614012276]},"properties":{"id":"1991","name":"Aire de loisirs des Ponts-Jumeaux","city":"TOULOUSE","oms":true,"actif":true}},{"type":"Feature","geometry":{"type":"Point","coordinates":[1.464318626,43.637825104]},"properties":{"id":"1992","name":"Parc Ozenne","city":"TOULOUSE","oms":true,"actif":true}},{"type":"Feature","geometry":{"type":"Point","coordinates":[1.462764,43.6364951]},"properties":{"id":"1993","name":"Espace du Ramelet","city":"TOULOUSE","oms":true,"actif":true}},{"type":"Feature","geometry":{"type":"Point","coordinates":[1.452634524,43.633879434]},"properties":{"id":"1994","name":"Parc de la Maourine","city":"TOULOUSE","oms":true,"actif":true}},{"type":"Feature","geometry":{"type":"Point","coordinates":[1.452264389,43.618839609]},"properties":{"id":"1995","name":"Jardin Lapujade","city":"TOULOUSE","oms":true,"actif":true}},{"type":"Feature","geometry":{"type":"Point","coordinates":[1.469054946,43.625473061]},"properties":{"id":"1996","name":"Square du toit du Rouland","city":"TOULOUSE","oms":true,"actif":true}},{"type":"Feature","geometry":{"type":"Point","coordinates":[1.457754103,43.622866863]},"properties":{"id":"1997","name":"Jardin des Hauts de Bonnefoy","city":"TOULOUSE","oms":true,"actif":true}},{"type":"Feature","geometry":{"type":"Point","coordinates":[1.455134898,43.615682587]},"properties":{"id":"1998","name":"Jardin Michelet","city":"TOULOUSE","oms":true,"actif":true}},{"type":"Feature","geometry":{"type":"Point","coordinates":[1.460458787,43.612882599]},"properties":{"id":"1999","name":"Parc Félix-Lavit","city":"TOULOUSE","oms":true,"actif":true}},{"type":"Feature","geometry":{"type":"Point","coordinates":[1.460582531,43.610549349]},"properties":{"id":"2000","name":"Parc Villa Méricant","city":"TOULOUSE","oms":true,"actif":true}},{"type":"Feature","geometry":{"type":"Point","coordinates":[1.463007808,43.612258584]},"properties":{"id":"2001","name":"Jardin de l'Observatoire","city":"TOULOUSE","oms":true,"actif":true}},{"type":"Feature","geometry":{"type":"Point","coordinates":[1.471945621,43.606892477]},"properties":{"id":"2002","name":"Jardin de la Coquille","city":"TOULOUSE","oms":true,"actif":true}},{"type":"Feature","geometry":{"type":"Point","coordinates":[1.463423306,43.60185931]},"properties":{"id":"2003","name":"Jardin Sacarin ","city":"TOULOUSE","oms":true,"actif":true}},{"type":"Feature","geometry":{"type":"Point","coordinates":[1.485648312,43.588715612]},"properties":{"id":"2004","name":"Bois de Limayrac ","city":"TOULOUSE","oms":true,"actif":true}},{"type":"Feature","geometry":{"type":"Point","coordinates":[1.484708746,43.579366902]},"properties":{"id":"2005","name":"Jardin Corraze ","city":"TOULOUSE","oms":true,"actif":true}},{"type":"Feature","geometry":{"type":"Point","coordinates":[1.500891717,43.575558867]},"properties":{"id":"2006","name":"Espace nature Ribaute","city":"TOULOUSE","oms":true,"actif":true}},{"type":"Feature","geometry":{"type":"Point","coordinates":[1.501850891,43.570374314]},"properties":{"id":"2007","name":"Espace nature de la Marcaissonne","city":"TOULOUSE","oms":true,"actif":true}},{"type":"Feature","geometry":{"type":"Point","coordinates":[1.485569633,43.576193889]},"properties":{"id":"2008","name":"Parc Alalouf","city":"TOULOUSE","oms":true,"actif":true}},{"type":"Feature","geometry":{"type":"Point","coordinates":[1.469524719,43.583524587]},"properties":{"id":"2009","name":"Parc Antoine de Saint-Exupéry","city":"TOULOUSE","oms":true,"actif":true}},{"type":"Feature","geometry":{"type":"Point","coordinates":[1.464649621,43.589397414]},"properties":{"id":"2010","name":"Parc de la Boisseraie","city":"TOULOUSE","oms":true,"actif":true}},{"type":"Feature","geometry":{"type":"Point","coordinates":[1.491400391,43.581774707]},"properties":{"id":"2011","name":"Bois de Sarabelle","city":"TOULOUSE","oms":true,"actif":true}},{"type":"Feature","geometry":{"type":"Point","coordinates":[1.46186108,43.573077739]},"properties":{"id":"2012","name":"Jardin Rangueil","city":"TOULOUSE","oms":true,"actif":true}},{"type":"Feature","geometry":{"type":"Point","coordinates":[1.460207141,43.571523738]},"properties":{"id":"2013","name":"Parc du Sacré-Cœur","city":"TOULOUSE","oms":true,"actif":true}},{"type":"Feature","geometry":{"type":"Point","coordinates":[1.432688997,43.577614406]},"properties":{"id":"2015","name":"Parc de la Poudrerie","city":"TOULOUSE","oms":true,"actif":true}},{"type":"Feature","geometry":{"type":"Point","coordinates":[1.4344835,43.5760703]},"properties":{"id":"2016","name":"Île du Ramier","city":"TOULOUSE","oms":true,"actif":true}},{"type":"Feature","geometry":{"type":"Point","coordinates":[1.445339841,43.578135262]},"properties":{"id":"2017","name":"Jardin Niel","city":"TOULOUSE","oms":true,"actif":true}},{"type":"Feature","geometry":{"type":"Point","coordinates":[1.476149827,43.572790176]},"properties":{"id":"2018","name":"Jardins de la Ligne","city":"TOULOUSE","oms":true,"actif":true}},{"type":"Feature","geometry":{"type":"Point","coordinates":[1.397730009,43.614895395]},"properties":{"id":"2019","name":"Espace vert des Arènes romaines","city":"TOULOUSE","oms":true,"actif":true}},{"type":"Feature","geometry":{"type":"Point","coordinates":[1.38034916,43.572152885]},"properties":{"id":"2020","name":"Parc de la Mounède","city":"TOULOUSE","oms":true,"actif":true}},{"type":"Feature","geometry":{"type":"Point","coordinates":[1.38615702,43.578656691]},"properties":{"id":"2021","name":"Parc des Cèdres","city":"TOULOUSE","oms":true,"actif":true}},{"type":"Feature","geometry":{"type":"Point","coordinates":[1.399526805,43.566653495]},"properties":{"id":"2022","name":"Parc de Clairfont","city":"TOULOUSE","oms":true,"actif":true}},{"type":"Feature","geometry":{"type":"Point","coordinates":[1.3991126,43.5837167]},"properties":{"id":"2023","name":"Coulée verte de Négogousses","city":"TOULOUSE","oms":true,"actif":true}},{"type":"Feature","geometry":{"type":"Point","coordinates":[1.377438776,43.589448292]},"properties":{"id":"2024","name":"Jardin Sauvegrain","city":"TOULOUSE","oms":true,"actif":true}},{"type":"Feature","geometry":{"type":"Point","coordinates":[1.386728014,43.608223758]},"properties":{"id":"2025","name":"Coulée verte du Touch","city":"TOULOUSE","oms":true,"actif":true}},{"type":"Feature","geometry":{"type":"Point","coordinates":[1.398393618,43.572218504]},"properties":{"id":"2026","name":"Parc et lac de la Reynerie","city":"TOULOUSE","oms":true,"actif":true}},{"type":"Feature","geometry":{"type":"Point","coordinates":[1.397720724,43.57278447]},"properties":{"id":"2027","name":"Parc du château de la Reynerie","city":"TOULOUSE","oms":true,"actif":true}},{"type":"Feature","geometry":{"type":"Point","coordinates":[1.4552937,43.5502416]},"properties":{"id":"2028","name":"Espace nature Narrade","city":"TOULOUSE","oms":true,"actif":true}},{"type":"Feature","geometry":{"type":"Point","coordinates":[1.4516571,43.6323361]},"properties":{"id":"2029","name":"Les Jardins du Muséum","city":"TOULOUSE","oms":true,"actif":true}},{"type":"Feature","geometry":{"type":"Polygon","coordinates":[[[1.448525,43.595074],[1.448874,43.594709],[1.451287,43.595521],[1.451142,43.595797],[1.451116,43.595949],[1.451212,43.596259],[1.450622,43.5965],[1.450386,43.596302],[1.448525,43.595074]]]},"properties":{"id":"1957","name":"Jardin Royal","city":"TOULOUSE","oms":true,"actif":true}},{"type":"Feature","geometry":{"type":"Polygon","coordinates":[[[1.451315,43.596302],[1.451468,43.596448],[1.451806,43.596613],[1.452431,43.596689],[1.452758,43.596658],[1.453094,43.596574],[1.453569,43.596322],[1.453823,43.59605],[1.453966,43.595813],[1.454014,43.595599],[1.453947,43.595364],[1.453813,43.595179],[1.453539,43.594981],[1.453354,43.594913],[1.453081,43.594863],[1.452761,43.594834],[1.452402,43.594861],[1.451839,43.595051],[1.451627,43.595193],[1.451343,43.595508],[1.451233,43.595696],[1.451198,43.59582],[1.451187,43.596052],[1.451315,43.596302]]]},"properties":{"id":"1956","name":"Jardin du Grand-Rond","city":"TOULOUSE","oms":true,"actif":true}},{"type":"Feature","geometry":{"type":"Polygon","coordinates":[[[1.435223,43.592943],[1.435191,43.592868],[1.435164,43.59279],[1.435518,43.592745],[1.435577,43.592749],[1.435655,43.592741],[1.435724,43.592738],[1.43592,43.592879],[1.436019,43.593017],[1.436019,43.593107],[1.436153,43.593268],[1.43618,43.59333],[1.436327,43.593528],[1.436327,43.593573],[1.436469,43.593713],[1.436587,43.593761],[1.436692,43.593825],[1.436939,43.594156],[1.43718,43.594527],[1.437339,43.594828],[1.437392,43.594869],[1.437381,43.594911],[1.437451,43.595024],[1.437532,43.595273],[1.437534,43.595342],[1.437714,43.595748],[1.437896,43.596687],[1.437945,43.597064],[1.437977,43.597069],[1.437996,43.597108],[1.437963,43.597227],[1.438025,43.597493],[1.438022,43.597732],[1.438014,43.597864],[1.438006,43.598058],[1.437973,43.598291],[1.437861,43.598462],[1.437582,43.598532],[1.436767,43.59659],[1.435258,43.593021],[1.435223,43.592943]]]},"properties":{"id":"1958","name":"Prairie des Filtres ","city":"TOULOUSE","oms":true,"actif":true}},{"type":"Feature","geometry":{"type":"Polygon","coordinates":[[[1.439101,43.600919],[1.439648,43.601333],[1.438894,43.6019],[1.438366,43.601545],[1.439101,43.600919]]]},"properties":{"id":"1959","name":"Port de la Daurade","city":"TOULOUSE","oms":true,"actif":true}},{"type":"Feature","geometry":{"type":"Polygon","coordinates":[[[1.437414,43.603572],[1.437757,43.603633],[1.437784,43.603532],[1.43784,43.603539],[1.437918,43.603217],[1.437459,43.603198],[1.437414,43.603572]]]},"properties":{"id":"1963","name":"Jardin Aimé-Kunc","city":"TOULOUSE","oms":true,"actif":true}},{"type":"Feature","geometry":{"type":"Polygon","coordinates":[[[1.449732,43.599922],[1.449912,43.599937],[1.449917,43.59991],[1.450228,43.599951],[1.450204,43.600089],[1.450832,43.600161],[1.450864,43.600184],[1.45091,43.600213],[1.45098,43.600217],[1.451055,43.600201],[1.450945,43.600345],[1.450285,43.600421],[1.450156,43.600409],[1.450094,43.600388],[1.449799,43.600229],[1.449866,43.600186],[1.449748,43.599968],[1.449721,43.599965],[1.449732,43.599922]]]},"properties":{"id":"1969","name":"Square Saliège","city":"TOULOUSE","oms":true,"actif":true}},{"type":"Feature","geometry":{"type":"Polygon","coordinates":[[[1.429297,43.600323],[1.430198,43.599041],[1.430256,43.599565],[1.430192,43.5996],[1.430165,43.599639],[1.43024,43.599694],[1.430337,43.599655],[1.430627,43.60014],[1.430557,43.600195],[1.430541,43.600249],[1.431109,43.600902],[1.431206,43.600921],[1.43127,43.60091],[1.431758,43.60142],[1.431702,43.601465],[1.431621,43.601416],[1.431597,43.601436],[1.431546,43.601426],[1.431463,43.601174],[1.430707,43.601286],[1.430632,43.601372],[1.430811,43.601418],[1.43086,43.601584],[1.428268,43.602065],[1.428268,43.602011],[1.429457,43.601811],[1.42965,43.601556],[1.429602,43.601547],[1.429722,43.60136],[1.429974,43.601455],[1.430047,43.601354],[1.430138,43.601391],[1.430253,43.601389],[1.430366,43.601368],[1.430444,43.601304],[1.430497,43.601244],[1.43054,43.60116],[1.430529,43.601088],[1.430495,43.601014],[1.430449,43.600983],[1.430371,43.600929],[1.430433,43.600826],[1.429237,43.600373],[1.429297,43.600323]]]},"properties":{"id":"1971","name":"Jardin Raymond VI","city":"TOULOUSE","oms":true,"actif":true}},{"type":"Feature","geometry":{"type":"Polygon","coordinates":[[[1.441983,43.589863],[1.44223,43.58984],[1.442201,43.589327],[1.442407,43.589187],[1.442625,43.589189],[1.442614,43.588756],[1.44237,43.588686],[1.442252,43.588519],[1.4423,43.588251],[1.441347,43.58828],[1.441355,43.588336],[1.441323,43.588367],[1.441302,43.588369],[1.441312,43.588595],[1.44143,43.588523],[1.441613,43.588639],[1.44161,43.588725],[1.44168,43.58869],[1.441924,43.589004],[1.441922,43.58922],[1.441975,43.589236],[1.441983,43.589863]]]},"properties":{"id":"2014","name":"Jardin du Pays d'Oc","city":"TOULOUSE","oms":true,"actif":true}},{"type":"Feature","geometry":{"type":"Polygon","coordinates":[[[1.448947,43.592485],[1.449033,43.592368],[1.452364,43.591185],[1.452769,43.591385],[1.452348,43.594581],[1.452297,43.594723],[1.452147,43.594808],[1.4519,43.594898],[1.451417,43.594466],[1.451471,43.594406],[1.451283,43.594334],[1.45134,43.594259],[1.451273,43.594058],[1.450895,43.593921],[1.450916,43.593888],[1.450806,43.593827],[1.450717,43.593806],[1.450575,43.593759],[1.450599,43.593736],[1.450192,43.59359],[1.450157,43.593652],[1.450125,43.593651],[1.449457,43.594282],[1.449435,43.594257],[1.449352,43.594332],[1.449205,43.59428],[1.44966,43.593841],[1.449599,43.593802],[1.449626,43.593777],[1.449403,43.593633],[1.449301,43.593538],[1.449258,43.593468],[1.449194,43.593328],[1.449202,43.593182],[1.449269,43.593062],[1.449491,43.592811],[1.449154,43.592611],[1.448947,43.592485]]]},"properties":{"id":"1955","name":"Jardin des Plantes","city":"TOULOUSE","oms":true,"actif":true}}]}