[{"id":28490,"name":"ANICHE","postalCode":"59580","inseeCode":"59008","lonX":3.255832923,"latY":50.330752803},{"id":2814,"name":"AUBERCHICOURT","postalCode":"59165","inseeCode":"59024","lonX":3.227859714,"latY":50.330054902},{"id":10150,"name":"BRUILLE LEZ MARCHIENNES","postalCode":"59490","inseeCode":"59113","lonX":3.243711993,"latY":50.356057006},{"id":10164,"name":"ECAILLON","postalCode":"59176","inseeCode":"59185","lonX":3.21542413,"latY":50.348534741},{"id":28633,"name":"ERRE","postalCode":"59171","inseeCode":"59203","lonX":3.316110243,"latY":50.370046075},{"id":2860,"name":"FENAIN","postalCode":"59179","inseeCode":"59227","lonX":3.299999325,"latY":50.367264417},{"id":23411,"name":"HORNAING","postalCode":"59171","inseeCode":"59314","lonX":3.335989827,"latY":50.369164298},{"id":26926,"name":"LEWARDE","postalCode":"59287","inseeCode":"59345","lonX":3.168478544,"latY":50.337033085},{"id":28762,"name":"LOFFRE","postalCode":"59182","inseeCode":"59354","lonX":3.172924392,"latY":50.354015042},{"id":2885,"name":"MARCHIENNES","postalCode":"59870","inseeCode":"59375","lonX":3.262989075,"latY":50.41433787},{"id":23450,"name":"MASNY","postalCode":"59176","inseeCode":"59390","lonX":3.195472318,"latY":50.341011631},{"id":10204,"name":"MONCHECOURT","postalCode":"59234","inseeCode":"59409","lonX":3.210460803,"latY":50.306379373},{"id":23465,"name":"MONTIGNY EN OSTREVENT","postalCode":"59182","inseeCode":"59414","lonX":3.180591256,"latY":50.368129764},{"id":2909,"name":"PECQUENCOURT","postalCode":"59146","inseeCode":"59456","lonX":3.219150172,"latY":50.376523836},{"id":28849,"name":"RIEULAY","postalCode":"59870","inseeCode":"59501","lonX":3.265204916,"latY":50.387408311},{"id":27109,"name":"SOMAIN","postalCode":"59490","inseeCode":"59574","lonX":3.275538655,"latY":50.359950481},{"id":23548,"name":"TILLOY LEZ MARCHIENNES","postalCode":"59870","inseeCode":"59596","lonX":3.322044918,"latY":50.425965593},{"id":28930,"name":"VRED","postalCode":"59870","inseeCode":"59629","lonX":3.231776153,"latY":50.394459096},{"id":10243,"name":"WANDIGNIES HAMAGE","postalCode":"59870","inseeCode":"59637","lonX":3.323577064,"latY":50.39710597},{"id":2943,"name":"WARLAING","postalCode":"59870","inseeCode":"59642","lonX":3.323799761,"latY":50.409390324}]