[{"id":28512,"name":"AVESNES LES AUBERT","postalCode":"59129","inseeCode":"59037","lonX":3.377144907,"latY":50.191247723},{"id":26703,"name":"BAZUEL","postalCode":"59360","inseeCode":"59055","lonX":3.595479749,"latY":50.081957712},{"id":23259,"name":"BEAUMONT EN CAMBRESIS","postalCode":"59540","inseeCode":"59059","lonX":3.451693886,"latY":50.127271334},{"id":23268,"name":"BEAUVOIS EN CAMBRESIS","postalCode":"59157","inseeCode":"59063","lonX":3.384639714,"latY":50.140458933},{"id":10146,"name":"BERTRY","postalCode":"59980","inseeCode":"59074","lonX":3.439865586,"latY":50.082689506},{"id":26715,"name":"BETHENCOURT","postalCode":"59540","inseeCode":"59075","lonX":3.423277278,"latY":50.143033846},{"id":26721,"name":"BEVILLERS","postalCode":"59217","inseeCode":"59081","lonX":3.39048093,"latY":50.158135323},{"id":23298,"name":"BOUSSIERES EN CAMBRESIS","postalCode":"59217","inseeCode":"59102","lonX":3.372049851,"latY":50.164142271},{"id":23305,"name":"BRIASTRE","postalCode":"59730","inseeCode":"59108","lonX":3.486753113,"latY":50.155124137},{"id":28577,"name":"BUSIGNY","postalCode":"59137","inseeCode":"59118","lonX":3.466628482,"latY":50.037779568},{"id":28595,"name":"CARNIERES","postalCode":"59217","inseeCode":"59132","lonX":3.345427357,"latY":50.165283474},{"id":2836,"name":"CATILLON SUR SAMBRE","postalCode":"59360","inseeCode":"59137","lonX":3.644788721,"latY":50.070903521},{"id":28599,"name":"CATTENIERES","postalCode":"59217","inseeCode":"59138","lonX":3.33625964,"latY":50.133109968},{"id":10154,"name":"CAUDRY","postalCode":"59540","inseeCode":"59139","lonX":3.41876024,"latY":50.119152208},{"id":10155,"name":"CAULLERY","postalCode":"59191","inseeCode":"59140","lonX":3.372620697,"latY":50.082106515},{"id":10156,"name":"CLARY","postalCode":"59225","inseeCode":"59149","lonX":3.396236324,"latY":50.06856285},{"id":2843,"name":"DEHERIES","postalCode":"59127","inseeCode":"59171","lonX":3.34468007,"latY":50.051061086},{"id":28624,"name":"ELINCOURT","postalCode":"59127","inseeCode":"59191","lonX":3.370826624,"latY":50.045661656},{"id":26816,"name":"ESTOURMEL","postalCode":"59400","inseeCode":"59213","lonX":3.321489557,"latY":50.152239189},{"id":10173,"name":"FONTAINE AU PIRE","postalCode":"59157","inseeCode":"59243","lonX":3.366543396,"latY":50.127814805},{"id":28714,"name":"HAUCOURT EN CAMBRESIS","postalCode":"59191","inseeCode":"59287","lonX":3.342907658,"latY":50.107143226},{"id":26882,"name":"HONNECHY","postalCode":"59980","inseeCode":"59311","lonX":3.480420011,"latY":50.067514361},{"id":2874,"name":"INCHY","postalCode":"59540","inseeCode":"59321","lonX":3.470685344,"latY":50.121624234},{"id":2867,"name":"LA GROISE","postalCode":"59360","inseeCode":"59274","lonX":3.681031468,"latY":50.076067857},{"id":26754,"name":"LE CATEAU CAMBRESIS","postalCode":"59360","inseeCode":"59136","lonX":3.539085971,"latY":50.092186829},{"id":10192,"name":"LIGNY EN CAMBRESIS","postalCode":"59191","inseeCode":"59349","lonX":3.377965272,"latY":50.102688568},{"id":10197,"name":"MALINCOURT","postalCode":"59127","inseeCode":"59372","lonX":3.324408056,"latY":50.035817125},{"id":28770,"name":"MARETZ","postalCode":"59238","inseeCode":"59382","lonX":3.420012247,"latY":50.045030994},{"id":26949,"name":"MAUROIS","postalCode":"59980","inseeCode":"59394","lonX":3.459352226,"latY":50.073486901},{"id":2892,"name":"MAZINGHIEN","postalCode":"59360","inseeCode":"59395","lonX":3.596518566,"latY":50.050054745},{"id":10206,"name":"MONTAY","postalCode":"59360","inseeCode":"59412","lonX":3.534175122,"latY":50.121890457},{"id":26956,"name":"MONTIGNY EN CAMBRESIS","postalCode":"59225","inseeCode":"59413","lonX":3.414375781,"latY":50.091388402},{"id":23471,"name":"NEUVILLY","postalCode":"59360","inseeCode":"59430","lonX":3.509787992,"latY":50.134953106},{"id":2907,"name":"ORS","postalCode":"59360","inseeCode":"59450","lonX":3.630663091,"latY":50.105351069},{"id":2911,"name":"POMMEREUIL","postalCode":"59360","inseeCode":"59465","lonX":3.587156401,"latY":50.117546308},{"id":10216,"name":"QUIEVY","postalCode":"59214","inseeCode":"59485","lonX":3.422392904,"latY":50.163050103},{"id":2917,"name":"REJET DE BEAULIEU","postalCode":"59360","inseeCode":"59496","lonX":3.634633217,"latY":50.045826458},{"id":28843,"name":"REUMONT","postalCode":"59980","inseeCode":"59498","lonX":3.479286824,"latY":50.085327224},{"id":2921,"name":"ST AUBERT","postalCode":"59188","inseeCode":"59528","lonX":3.417674616,"latY":50.207299234},{"id":27068,"name":"ST BENIN","postalCode":"59360","inseeCode":"59531","lonX":3.532248803,"latY":50.076394529},{"id":27072,"name":"ST HILAIRE LEZ CAMBRAI","postalCode":"59292","inseeCode":"59533","lonX":3.417424872,"latY":50.181143116},{"id":2925,"name":"ST SOUPLET","postalCode":"59360","inseeCode":"59545","lonX":3.515785769,"latY":50.052824437},{"id":2926,"name":"ST VAAST EN CAMBRESIS","postalCode":"59188","inseeCode":"59547","lonX":3.434834329,"latY":50.194282568},{"id":23554,"name":"TROISVILLES","postalCode":"59980","inseeCode":"59604","lonX":3.473244317,"latY":50.102276969},{"id":28927,"name":"VILLERS OUTREAUX","postalCode":"59142","inseeCode":"59624","lonX":3.291749881,"latY":50.029606023},{"id":2939,"name":"WALINCOURT SELVIGNY","postalCode":"59127","inseeCode":"59631","lonX":3.339373567,"latY":50.073631503}]